[
  {
    "name": "Milwaukee",
    "pop2022": 573700,
    "usps": "WI",
    "lon": "-87.906471",
    "lat": "43.038902"
  },
  {
    "name": "Lincoln",
    "pop2022": 297622,
    "usps": "NE",
    "lon": "-96.681679",
    "lat": "40.806862"
  },
  {
    "name": "Fargo",
    "pop2022": 130078,
    "usps": "ND",
    "lon": "-96.789803",
    "lat": "46.877186"
  },
  {
    "name": "Green Bay",
    "pop2022": 108063,
    "usps": "WI",
    "lon": "-88.015831",
    "lat": "44.513332"
  },
  {
    "name": "Appleton",
    "pop2022": 76248,
    "usps": "WI",
    "lon": "-88.4",
    "lat": "44.266667"
  },
  {
    "name": "Iowa City",
    "pop2022": 76222,
    "usps": "IA",
    "lon": "-91.530167",
    "lat": "41.661129"

  },
  {
    "name": "Missoula",
    "pop2022": 74829,
    "usps": "MT",
    "lon": "-113.994052",
    "lat": "46.872115"

  },
  {
    "name": "Eau Claire",
    "pop2022": 70129,
    "usps": "WI",
    "lon": "-91.498497",
    "lat": "44.811348"
  },
  {
    "name": "Ames",
    "pop2022": 67919,
    "usps": "IA",
    "lon": "-93.620369",
    "lat": "42.034534"
  },
  {
    "name": "Grand Forks",
    "pop2022": 60432,
    "usps": "ND",
    "lon": "-97.032852",
    "lat": "47.925259"
  },
  {
    "name": "Dubuque",
    "pop2022": 60073,
    "usps": "IA",
    "lon": "-90.718506",
    "lat": "42.516033"
  },
  {
    "name": "Sheboygan",
    "pop2022": 50057,
    "usps": "WI",
    "lon": "-87.714615",
    "lat": "43.750874"
  },
  {
    "name": "Mankato",
    "pop2022": 45524,
    "usps": "MN",
    "lon": "-94.000584",
    "lat": "44.163648"
  },
  {
    "name": "Fond du Lac",
    "pop2022": 45010,
    "usps": "WI",
    "lon": "-88.455734",
    "lat": "43.774071"
  },
  {
    "name": "Wausau",
    "pop2022": 40172,
    "usps": "WI",
    "lon": "-89.63012",
    "lat": "44.95914"
  },
  {
    "name": "Fairbanks",
    "pop2022": 32711,
    "usps": "AK",
    "lon": "-147.776749",
    "lat": "64.835365"
  },
  {
    "name": "Watertown",
    "pop2022": 24217,
    "usps": "NY",
    "lon": "-75.910759",
    "lat": "43.974785"
  },
  {
    "name": "Fort Drum",
    "pop2022": 16484,
    "usps": "NY",
    "lon": "-75.758163",
    "lat": "44.042332"
  }
]