[
  {
    "name": "Milwaukee",
    "pop2022": 573700,
    "usps": "WI",
    "lon": "-87.906471",
    "lat": "43.038902"
  },
  {
    "name": "Lincoln",
    "pop2022": 297622,
    "usps": "NE",
    "lon": "-96.681679",
    "lat": "40.806862"
  },
  {
    "name": "Fargo",
    "pop2022": 130078,
    "usps": "ND",
    "lon": "-96.789803",
    "lat": "46.877186"
  },
  {
    "name": "Green Bay",
    "pop2022": 108063,
    "usps": "WI",
    "lon": "-88.015831",
    "lat": "44.513332"
  },
  {
    "name": "Appleton",
    "pop2022": 76248,
    "usps": "WI",
    "lon": "-88.4",
    "lat": "44.266667"
  },
  {
    "name": "Iowa City",
    "pop2022": 76222,
    "usps": "IA",
    "lat": "41.661129",
    "lon": "-91.530167"
  },
  {
    "name": "Missoula",
    "pop2022": 74829,
    "usps": "MT",
    "lat": "46.872115",
    "lon": "-113.994052"
  },
  {
    "name": "Eau Claire",
    "pop2022": 70129,
    "usps": "WI",
    "lat": "44.811348",
    "lon": "-91.498497"
  },
  {
    "name": "Ames",
    "pop2022": 67919,
    "usps": "IA",
    "lat": "42.034534",
    "lon": "-93.620369"
  },
  {
    "name": "Grand Forks",
    "pop2022": 60432,
    "usps": "ND",
    "lat": "47.925259",
    "lon": "-97.032852"
  },
  {
    "name": "Dubuque",
    "pop2022": 60073,
    "usps": "IA",
    "lat": "42.516033",
    "lon": "-90.718506"
  },
  {
    "name": "Sheboygan",
    "pop2022": 50057,
    "usps": "WI",
    "lat": "43.750874",
    "lon": "-87.714615"
  },
  {
    "name": "Mankato",
    "pop2022": 45524,
    "usps": "MN",
    "lat": "44.163648",
    "lon": "-94.000584"
  },
  {
    "name": "Fond du Lac",
    "pop2022": 45010,
    "usps": "WI",
    "lat": "43.774071",
    "lon": "-88.455734"
  },
  {
    "name": "Wausau",
    "pop2022": 40172,
    "usps": "WI",
    "lat": "44.95914",
    "lon": "-89.63012"
  },
  {
    "name": "Fairbanks",
    "pop2022": 32711,
    "usps": "AK",
    "lat": "64.835365",
    "lon": "-147.776749"
  },
  {
    "name": "Watertown",
    "pop2022": 24217,
    "usps": "NY",
    "lat": "43.974785",
    "lon": "-75.910759"
  },
  {
    "name": "Fort Drum",
    "pop2022": 16484,
    "usps": "NY",
    "lat": "44.042332",
    "lon": "-75.758163"
  }
]